{
"type": "FeatureCollection",
"crs": { "type": "name", "properties": { "name": "urn:ogc:def:crs:OGC:1.3:CRS84" } },
"features": [
{ "type": "Feature", "properties": { "name": "Thoroughbreads", "classname": "Cafes, Snack Bars and Tea Rooms", "street_name": "Orwell Furlong", "postcode": "CB4 0PP", "url": "www.thoroughbreads.com" }, "geometry": { "type": "Point", "coordinates": [ 0.151506262793218, 52.231716250044371 ] } },
{ "type": "Feature", "properties": { "name": "The Orchard Tea Garden", "classname": "Cafes, Snack Bars and Tea Rooms", "street_name": "Mill Way", "postcode": "CB3 9ND", "url": "www.theorchardteagarden.co.uk" }, "geometry": { "type": "Point", "coordinates": [ 0.096454969733463, 52.177559035694898 ] } },
{ "type": "Feature", "properties": { "name": "The Senate", "classname": "Pubs, Bars and Inns", "street_name": "St Marys Passage", "postcode": "CB2 3PQ", "url": "www.thesenatebistro.com" }, "geometry": { "type": "Point", "coordinates": [ 0.118134438219667, 52.205011284068163 ] } },
{ "type": "Feature", "properties": { "name": "Savino's Coffee Bar Italiano", "classname": "Cafes, Snack Bars and Tea Rooms", "street_name": "St Andrews Street", "postcode": "CB2 3BZ", "url": "www.savinos.co.uk" }, "geometry": { "type": "Point", "coordinates": [ 0.123299001362878, 52.204360999249488 ] } },
{ "type": "Feature", "properties": { "name": "Regent News & Snacks", "classname": "Cafes, Snack Bars and Tea Rooms", "street_name": "Regent Street", "postcode": "CB2 1AW", "url": null }, "geometry": { "type": "Point", "coordinates": [ 0.12659205741305, 52.200381105469468 ] } },
{ "type": "Feature", "properties": { "name": "Peppercorns", "classname": "Cafes, Snack Bars and Tea Rooms", "street_name": "Rose Crescent", "postcode": "CB2 3LL", "url": null }, "geometry": { "type": "Point", "coordinates": [ 0.118621790934214, 52.206333387570588 ] } },
{ "type": "Feature", "properties": { "name": "Caffe Nero", "classname": "Cafes, Snack Bars and Tea Rooms", "street_name": "Market Street", "postcode": "CB2 3PA", "url": "www.caffenero.co.uk/default.aspx" }, "geometry": { "type": "Point", "coordinates": [ 0.119869132135225, 52.206095186114005 ] } },
{ "type": "Feature", "properties": { "name": "Tishka Cafe", "classname": "Cafes, Snack Bars and Tea Rooms", "street_name": "Chesterton Road", "postcode": "CB4 1EP", "url": null }, "geometry": { "type": "Point", "coordinates": [ 0.127430748455389, 52.214564557910123 ] } },
{ "type": "Feature", "properties": { "name": "Bridges Patisserie", "classname": "Cafes, Snack Bars and Tea Rooms", "street_name": "Bridge Street", "postcode": "CB2 1UF", "url": null }, "geometry": { "type": "Point", "coordinates": [ 0.118059324771493, 52.208969197430804 ] } },
{ "type": "Feature", "properties": { "name": "Tatties", "classname": "Cafes, Snack Bars and Tea Rooms", "street_name": "Sidney Street", "postcode": "CB1", "url": null }, "geometry": { "type": "Point", "coordinates": [ 0.121260314761268, 52.206910074333031 ] } },
{ "type": "Feature", "properties": { "name": "Loch Fyne Restaurant & Bar", "classname": "Pubs, Bars and Inns", "street_name": "Trumpington Street", "postcode": "CB2 1QY", "url": "www.lochfyneseafoodandgrill.co.uk/locations/cambridge" }, "geometry": { "type": "Point", "coordinates": [ 0.119743608636051, 52.20069311388108 ] } },
{ "type": "Feature", "properties": { "name": "Bath House", "classname": "Pubs, Bars and Inns", "street_name": "Bene't Street", "postcode": "CB2 3QN", "url": "www.greeneking.co.uk" }, "geometry": { "type": "Point", "coordinates": [ 0.118472732159023, 52.20412397754864 ] } },
{ "type": "Feature", "properties": { "name": "Plough & Fleece", "classname": "Pubs, Bars and Inns", "street_name": "High Street", "postcode": "CB25 9JG", "url": "www.ploughandfleece.co.uk" }, "geometry": { "type": "Point", "coordinates": [ 0.184530554663215, 52.237988415891024 ] } },
{ "type": "Feature", "properties": { "name": "The Green Dragon", "classname": "Pubs, Bars and Inns", "street_name": "Water Street", "postcode": "CB4 1NZ", "url": "www.greendragoncambridge.co.uk" }, "geometry": { "type": "Point", "coordinates": [ 0.145454032158434, 52.21796990332615 ] } },
{ "type": "Feature", "properties": { "name": "The Plough", "classname": "Pubs, Bars and Inns", "street_name": "Green End", "postcode": "CB5 8SX", "url": "www.theploughfenditton.co.uk" }, "geometry": { "type": "Point", "coordinates": [ 0.168161058954118, 52.223983904903882 ] } },
{ "type": "Feature", "properties": { "name": "The George", "classname": "Pubs, Bars and Inns", "street_name": "High Street", "postcode": "CB3 0QD", "url": null }, "geometry": { "type": "Point", "coordinates": [ 0.081468293665905, 52.241559416020905 ] } },
{ "type": "Feature", "properties": { "name": "Baroosh", "classname": "Pubs, Bars and Inns", "street_name": "Market Passage", "postcode": "CB2 3PF", "url": "www.baroosh.co.uk" }, "geometry": { "type": "Point", "coordinates": [ 0.120244129602661, 52.206286281628778 ] } },
{ "type": "Feature", "properties": { "name": "All Bar One - Cambridge", "classname": "Pubs, Bars and Inns", "street_name": "St. Andrews Street", "postcode": "CB2 3AR", "url": "www.allbarone.co.uk" }, "geometry": { "type": "Point", "coordinates": [ 0.123710347254015, 52.203166624692948 ] } },
{ "type": "Feature", "properties": { "name": "The Mitre - Nicholsons Pubs", "classname": "Pubs, Bars and Inns", "street_name": "Bridge Street", "postcode": "CB2 1UF", "url": "www.nicholsonspubs.co.uk" }, "geometry": { "type": "Point", "coordinates": [ 0.118259363208368, 52.20886669819933 ] } },
{ "type": "Feature", "properties": { "name": "Corner House", "classname": "Pubs, Bars and Inns", "street_name": "Newmarket Road", "postcode": "CB5 8JE", "url": null }, "geometry": { "type": "Point", "coordinates": [ 0.143407870422224, 52.209527674778542 ] } },
{ "type": "Feature", "properties": { "name": "The Old Spring", "classname": "Pubs, Bars and Inns", "street_name": "Ferry Path", "postcode": "CB4 1HB", "url": "www.theoldspring.co.uk" }, "geometry": { "type": "Point", "coordinates": [ 0.127777011883849, 52.21439736403191 ] } },
{ "type": "Feature", "properties": { "name": "The Maypole", "classname": "Pubs, Bars and Inns", "street_name": "Park Street", "postcode": "CB5 8AS", "url": "www.maypolefreehouse.co.uk" }, "geometry": { "type": "Point", "coordinates": [ 0.119306920127076, 52.209657174517531 ] } },
{ "type": "Feature", "properties": { "name": "Pickerel", "classname": "Pubs, Bars and Inns", "street_name": "Magdalene Street", "postcode": "CB3 0AF", "url": "www.greeneking.co.uk" }, "geometry": { "type": "Point", "coordinates": [ 0.116200865421723, 52.209901708167266 ] } },
{ "type": "Feature", "properties": { "name": "The Devonshire Arms", "classname": "Pubs, Bars and Inns", "street_name": "Devonshire Road", "postcode": "CB1 2BH", "url": "www.individualpubs.co.uk" }, "geometry": { "type": "Point", "coordinates": [ 0.138904706951042, 52.198971674466812 ] } },
{ "type": "Feature", "properties": { "name": "The Earl of Derby", "classname": "Pubs, Bars and Inns", "street_name": "Hills Road", "postcode": "CB2 1PG", "url": "www.theearlofderby.com" }, "geometry": { "type": "Point", "coordinates": [ 0.134070785637569, 52.192153170236331 ] } },
{ "type": "Feature", "properties": { "name": "Golden Hind", "classname": "Pubs, Bars and Inns", "street_name": "Milton Road", "postcode": "CB4 1SP", "url": "www.greeneking.co.uk" }, "geometry": { "type": "Point", "coordinates": [ 0.145582054204422, 52.227912639362756 ] } },
{ "type": "Feature", "properties": { "name": "The Six Bells", "classname": "Pubs, Bars and Inns", "street_name": "Covent Garden", "postcode": "CB1 2HS", "url": "www.sixbellspub.co.uk" }, "geometry": { "type": "Point", "coordinates": [ 0.134392110116959, 52.200384204328017 ] } },
{ "type": "Feature", "properties": { "name": "The Old Crown", "classname": "Pubs, Bars and Inns", "street_name": "High Street", "postcode": "CB3 0QD", "url": null }, "geometry": { "type": "Point", "coordinates": [ 0.081440524624067, 52.242531043908009 ] } },
{ "type": "Feature", "properties": { "name": "Eagle", "classname": "Pubs, Bars and Inns", "street_name": "Bene't Street", "postcode": "CB2 3QN", "url": "www.greeneking.co.uk" }, "geometry": { "type": "Point", "coordinates": [ 0.117928094205823, 52.204088787907452 ] } },
{ "type": "Feature", "properties": { "name": "The Empress", "classname": "Pubs, Bars and Inns", "street_name": "Thoday Street", "postcode": "CB1 3AX", "url": null }, "geometry": { "type": "Point", "coordinates": [ 0.147386174971593, 52.199150388001136 ] } },
{ "type": "Feature", "properties": { "name": "Barley Mow", "classname": "Pubs, Bars and Inns", "street_name": "High Street", "postcode": "CB24 9JD", "url": null }, "geometry": { "type": "Point", "coordinates": [ 0.105814043607703, 52.251792088641849 ] } },
{ "type": "Feature", "properties": { "name": "Rock", "classname": "Pubs, Bars and Inns", "street_name": "Cherry Hinton Road", "postcode": "CB1 7AW", "url": "www.greeneking.co.uk" }, "geometry": { "type": "Point", "coordinates": [ 0.146752086762857, 52.187517032079867 ] } },
{ "type": "Feature", "properties": { "name": "The Dobblers Inn", "classname": "Pubs, Bars and Inns", "street_name": "Sturton Street", "postcode": "CB1 2QF", "url": "www.thedobblers.com" }, "geometry": { "type": "Point", "coordinates": [ 0.1400804410059, 52.205469694005238 ] } },
{ "type": "Feature", "properties": { "name": "Panton Arms", "classname": "Pubs, Bars and Inns", "street_name": "Panton Street", "postcode": "CB2 1HL", "url": null }, "geometry": { "type": "Point", "coordinates": [ 0.125231966687661, 52.196413095682566 ] } },
{ "type": "Feature", "properties": { "name": "Baron of Beef", "classname": "Pubs, Bars and Inns", "street_name": "Bridge Street", "postcode": "CB2 1UF", "url": "www.greeneking.co.uk" }, "geometry": { "type": "Point", "coordinates": [ 0.118145360911529, 52.208931686549256 ] } },
{ "type": "Feature", "properties": { "name": "The Ship - Charles Wells", "classname": "Pubs, Bars and Inns", "street_name": "Northfield Avenue", "postcode": "CB4 2LG", "url": "www.theship.co.uk" }, "geometry": { "type": "Point", "coordinates": [ 0.128821475916776, 52.231093437130646 ] } },
{ "type": "Feature", "properties": { "name": "Red Lion", "classname": "Pubs, Bars and Inns", "street_name": "Mill End Road", "postcode": "CB1 9JP", "url": null }, "geometry": { "type": "Point", "coordinates": [ 0.171990171765867, 52.185894016736704 ] } },
{ "type": "Feature", "properties": { "name": "The Grain & Hop Store", "classname": "Pubs, Bars and Inns", "street_name": "Regent Street", "postcode": "CB2 1AB", "url": "www.greeneking.co.uk" }, "geometry": { "type": "Point", "coordinates": [ 0.126320800986647, 52.200676440801537 ] } },
{ "type": "Feature", "properties": { "name": "The Red Lion", "classname": "Pubs, Bars and Inns", "street_name": "High Street", "postcode": "CB3 9NF", "url": null }, "geometry": { "type": "Point", "coordinates": [ 0.095562940699585, 52.180362405365138 ] } },
{ "type": "Feature", "properties": { "name": "The Red Bull - Charles Wells", "classname": "Pubs, Bars and Inns", "street_name": "Barton Road", "postcode": "CB3 9JZ", "url": "www.charleswells.co.uk" }, "geometry": { "type": "Point", "coordinates": [ 0.108713900866091, 52.196457609890558 ] } },
{ "type": "Feature", "properties": { "name": "Prince Regent", "classname": "Pubs, Bars and Inns", "street_name": "Regent Street", "postcode": "CB2 1AW", "url": "www.greeneking.co.uk" }, "geometry": { "type": "Point", "coordinates": [ 0.126921512210233, 52.199925563316398 ] } },
{ "type": "Feature", "properties": { "name": "The Railway Vue", "classname": "Pubs, Bars and Inns", "street_name": "Station Road", "postcode": "CB24 9NP", "url": "www.therailwayvue.co.uk" }, "geometry": { "type": "Point", "coordinates": [ 0.110915389435062, 52.24259196864589 ] } },
{ "type": "Feature", "properties": { "name": "The Free Press", "classname": "Pubs, Bars and Inns", "street_name": "Prospect Row", "postcode": "CB1 1DU", "url": null }, "geometry": { "type": "Point", "coordinates": [ 0.13041763875112, 52.204790281212915 ] } },
{ "type": "Feature", "properties": { "name": "Lion & Lamb", "classname": "Pubs, Bars and Inns", "street_name": "High Street", "postcode": "CB24 6DF", "url": null }, "geometry": { "type": "Point", "coordinates": [ 0.161925153213948, 52.243807026708225 ] } },
{ "type": "Feature", "properties": { "name": "Fort St George", "classname": "Pubs, Bars and Inns", "street_name": "Victoria Avenue", "postcode": "CB4 1HA", "url": "www.greeneking.co.uk" }, "geometry": { "type": "Point", "coordinates": [ 0.12774237164924, 52.212508784851124 ] } },
{ "type": "Feature", "properties": { "name": "Live & Let Live", "classname": "Pubs, Bars and Inns", "street_name": "Mawson Road", "postcode": "CB1 2EA", "url": null }, "geometry": { "type": "Point", "coordinates": [ 0.135060304190216, 52.199364995129969 ] } },
{ "type": "Feature", "properties": { "name": "Boathouse", "classname": "Pubs, Bars and Inns", "street_name": "Chesterton Road", "postcode": "CB4 3AX", "url": "www.greeneking.co.uk" }, "geometry": { "type": "Point", "coordinates": [ 0.123699548204326, 52.213678573340751 ] } },
{ "type": "Feature", "properties": { "name": "Ta Bouche", "classname": "Pubs, Bars and Inns", "street_name": "Market Passage", "postcode": "CB2 3PF", "url": "www.tabouche.co.uk" }, "geometry": { "type": "Point", "coordinates": [ 0.119950378724357, 52.20626457955386 ] } },
{ "type": "Feature", "properties": { "name": "Anchor Cambridge", "classname": "Pubs, Bars and Inns", "street_name": null, "postcode": "CB3 9EL", "url": "www.anchorcambridge.com/" }, "geometry": { "type": "Point", "coordinates": [ 0.115778192429624, 52.201933237599071 ] } },
{ "type": "Feature", "properties": { "name": "The Wrestlers - Charles Wells", "classname": "Pubs, Bars and Inns", "street_name": "Newmarket Road", "postcode": "CB5 8JE", "url": "www.charleswells.co.uk" }, "geometry": { "type": "Point", "coordinates": [ 0.146276882848098, 52.211049104866838 ] } },
{ "type": "Feature", "properties": { "name": "Granta", "classname": "Pubs, Bars and Inns", "street_name": "Newnham Road", "postcode": "CB3 9EX", "url": "www.grantacambridge.com/" }, "geometry": { "type": "Point", "coordinates": [ 0.113900588671939, 52.199682874866319 ] } },
{ "type": "Feature", "properties": { "name": "King William IV", "classname": "Pubs, Bars and Inns", "street_name": "Church Street", "postcode": "CB24 9EP", "url": null }, "geometry": { "type": "Point", "coordinates": [ 0.104212150133463, 52.254907643340495 ] } },
{ "type": "Feature", "properties": { "name": "Rose & Crown", "classname": "Pubs, Bars and Inns", "street_name": "Glebe Way", "postcode": "CB24 9JB", "url": "www.everards.co.uk" }, "geometry": { "type": "Point", "coordinates": [ 0.109013618434415, 52.251447210694636 ] } },
{ "type": "Feature", "properties": { "name": "Salisbury Arms - Charles Wells", "classname": "Pubs, Bars and Inns", "street_name": "Tenison Road", "postcode": "CB1 2DW", "url": "www.salisburyarmscambridge.co.uk" }, "geometry": { "type": "Point", "coordinates": [ 0.135055915972848, 52.198357949481469 ] } },
{ "type": "Feature", "properties": { "name": "Sir Isaac Newton", "classname": "Pubs, Bars and Inns", "street_name": "Castle Street", "postcode": "CB3 0AJ", "url": "www.sirisaacnewton-cambridge.co.uk" }, "geometry": { "type": "Point", "coordinates": [ 0.11219947348715, 52.213489187788113 ] } },
{ "type": "Feature", "properties": { "name": "White Horse", "classname": "Pubs, Bars and Inns", "street_name": "High Street", "postcode": "CB24 6AJ", "url": "www.whitehorsemilton.co.uk" }, "geometry": { "type": "Point", "coordinates": [ 0.161453830921157, 52.24324196732799 ] } },
{ "type": "Feature", "properties": { "name": "The White Horse Inn", "classname": "Pubs, Bars and Inns", "street_name": "High Street", "postcode": "CB23 7BG", "url": "www.thewhitehorseinnbarton.co.uk" }, "geometry": { "type": "Point", "coordinates": [ 0.062509071874541, 52.17854398220183 ] } },
{ "type": "Feature", "properties": { "name": "The King Street Run", "classname": "Pubs, Bars and Inns", "street_name": "King Street", "postcode": "CB1 1LN", "url": null }, "geometry": { "type": "Point", "coordinates": [ 0.125190128253816, 52.207186508324376 ] } },
{ "type": "Feature", "properties": { "name": "The Portland Arms", "classname": "Pubs, Bars and Inns", "street_name": "Chesterton Road", "postcode": "CB4 3BA", "url": "www.theportlandarms.co.uk" }, "geometry": { "type": "Point", "coordinates": [ 0.124603897341447, 52.214469780724272 ] } },
{ "type": "Feature", "properties": { "name": "The Cambridge Blue", "classname": "Pubs, Bars and Inns", "street_name": "Gwydir Street", "postcode": "CB1 2LG", "url": "www.cambridge.pub" }, "geometry": { "type": "Point", "coordinates": [ 0.139114330492623, 52.202420878099268 ] } },
{ "type": "Feature", "properties": { "name": "Starbucks Coffee Co UK Ltd", "classname": "Cafes, Snack Bars and Tea Rooms", "street_name": null, "postcode": "CB2 0QQ", "url": "www.starbucks.co.uk" }, "geometry": { "type": "Point", "coordinates": [ 0.140447394081827, 52.174736751565391 ] } },
{ "type": "Feature", "properties": { "name": "The Geldart", "classname": "Pubs, Bars and Inns", "street_name": "Ainsworth Street", "postcode": "CB1 2PF", "url": null }, "geometry": { "type": "Point", "coordinates": [ 0.142099245290097, 52.203625638928862 ] } },
{ "type": "Feature", "properties": { "name": "The Carlton Arms", "classname": "Pubs, Bars and Inns", "street_name": "Carlton Way", "postcode": "CB4 2BY", "url": null }, "geometry": { "type": "Point", "coordinates": [ 0.118812702056781, 52.222063136486717 ] } },
{ "type": "Feature", "properties": { "name": "Tea & Co", "classname": "Cafes, Snack Bars and Tea Rooms", "street_name": "Hills Road", "postcode": "CB2 0QQ", "url": "www.royalvoluntaryservice.org.uk" }, "geometry": { "type": "Point", "coordinates": [ 0.140992963646293, 52.1757429775585 ] } },
{ "type": "Feature", "properties": { "name": "The Punter", "classname": "Pubs, Bars and Inns", "street_name": "Pound Hill", "postcode": "CB3 0AE", "url": null }, "geometry": { "type": "Point", "coordinates": [ 0.113288600511804, 52.2105293471217 ] } },
{ "type": "Feature", "properties": { "name": "Livingstones Cafe", "classname": "Cafes, Snack Bars and Tea Rooms", "street_name": "St Andrews Street", "postcode": "CB2 3AR", "url": "www.stasbaptist.org" }, "geometry": { "type": "Point", "coordinates": [ 0.123821801616977, 52.202741984248412 ] } },
{ "type": "Feature", "properties": { "name": "Revolution Bar Cambridge", "classname": "Pubs, Bars and Inns", "street_name": "Downing Street", "postcode": "CB2 3DS", "url": "www.revolution-bars.co.uk" }, "geometry": { "type": "Point", "coordinates": [ 0.123236215979986, 52.203320826950879 ] } },
{ "type": "Feature", "properties": { "name": "Tesco Cafe", "classname": "Cafes, Snack Bars and Tea Rooms", "street_name": "Yarrow Road", "postcode": "CB1 9BF", "url": "www.tesco.com" }, "geometry": { "type": "Point", "coordinates": [ 0.188108030139025, 52.186855864584857 ] } },
{ "type": "Feature", "properties": { "name": "Starbucks Coffee Co UK Ltd", "classname": "Cafes, Snack Bars and Tea Rooms", "street_name": "Newmarket Road", "postcode": "CB5 8WR", "url": "www.starbucks.co.uk" }, "geometry": { "type": "Point", "coordinates": [ 0.144926193341272, 52.20944612462123 ] } },
{ "type": "Feature", "properties": { "name": "The Red Lion", "classname": "Pubs, Bars and Inns", "street_name": "High Street", "postcode": "CB24 9JD", "url": "www.theredlionhiston.co.uk" }, "geometry": { "type": "Point", "coordinates": [ 0.104393963618095, 52.252743602755061 ] } },
{ "type": "Feature", "properties": { "name": "Kings Head", "classname": "Pubs, Bars and Inns", "street_name": "High Street", "postcode": "CB5 8ST", "url": null }, "geometry": { "type": "Point", "coordinates": [ 0.169879413214011, 52.221389571970093 ] } },
{ "type": "Feature", "properties": { "name": "Urban Larder", "classname": "Cafes, Snack Bars and Tea Rooms", "street_name": "Mill Road", "postcode": "CB1 3AH", "url": null }, "geometry": { "type": "Point", "coordinates": [ 0.143659232981933, 52.198031160533056 ] } },
{ "type": "Feature", "properties": { "name": "The Emperor", "classname": "Pubs, Bars and Inns", "street_name": "Hills Road", "postcode": "CB2 1NW", "url": null }, "geometry": { "type": "Point", "coordinates": [ 0.129510861780295, 52.197154256896241 ] } },
{ "type": "Feature", "properties": { "name": "Caffe Nero", "classname": "Cafes, Snack Bars and Tea Rooms", "street_name": "Kings Parade", "postcode": "CB2 1SP", "url": "www.caffenero.co.uk/default.aspx" }, "geometry": { "type": "Point", "coordinates": [ 0.11803644068205, 52.204797229025864 ] } },
{ "type": "Feature", "properties": { "name": "Caffe Nero", "classname": "Cafes, Snack Bars and Tea Rooms", "street_name": "Fitzroy Street", "postcode": "CB1 1EW", "url": "www.caffenero.co.uk/default.aspx" }, "geometry": { "type": "Point", "coordinates": [ 0.13040257283565, 52.206615984974114 ] } },
{ "type": "Feature", "properties": { "name": "The Alma", "classname": "Pubs, Bars and Inns", "street_name": "Russell Court", "postcode": "CB2 1HW", "url": "www.thealmacambridge.co.uk" }, "geometry": { "type": "Point", "coordinates": [ 0.125430256992046, 52.195968910721732 ] } },
{ "type": "Feature", "properties": { "name": "Hot Numbers Coffee", "classname": "Cafes, Snack Bars and Tea Rooms", "street_name": "Gwydir Street", "postcode": "CB1 2LJ", "url": "www.hotnumberscoffee.co.uk" }, "geometry": { "type": "Point", "coordinates": [ 0.138432297365889, 52.200104258918344 ] } },
{ "type": "Feature", "properties": { "name": "The Med", "classname": "Pubs, Bars and Inns", "street_name": null, "postcode": "CB1 3RX", "url": null }, "geometry": { "type": "Point", "coordinates": [ 0.152952592286111, 52.189188962778424 ] } },
{ "type": "Feature", "properties": { "name": "Starbucks Coffee Co UK Ltd", "classname": "Cafes, Snack Bars and Tea Rooms", "street_name": "Fitzroy Street", "postcode": "CB1 1ER", "url": "www.starbucks.co.uk" }, "geometry": { "type": "Point", "coordinates": [ 0.13147051382237, 52.206911440706449 ] } },
{ "type": "Feature", "properties": { "name": "Cafe Milano", "classname": "Cafes, Snack Bars and Tea Rooms", "street_name": "St Andrews Street", "postcode": "CB2 3BZ", "url": null }, "geometry": { "type": "Point", "coordinates": [ 0.122795347772626, 52.204540908536679 ] } },
{ "type": "Feature", "properties": { "name": "The Castle Inn", "classname": "Pubs, Bars and Inns", "street_name": "Castle Street", "postcode": "CB3 0AJ", "url": null }, "geometry": { "type": "Point", "coordinates": [ 0.113590834058868, 52.211962642268816 ] } },
{ "type": "Feature", "properties": { "name": "The Mill", "classname": "Pubs, Bars and Inns", "street_name": "Mill Lane", "postcode": "CB2 1RX", "url": "www.themillpubcambridge.com" }, "geometry": { "type": "Point", "coordinates": [ 0.11616411864878, 52.201431749115628 ] } },
{ "type": "Feature", "properties": { "name": "Costa Coffee", "classname": "Cafes, Snack Bars and Tea Rooms", "street_name": "Newmarket Road", "postcode": "CB5 8HE", "url": "www.costa.co.uk" }, "geometry": { "type": "Point", "coordinates": [ 0.143738752030525, 52.211535863367352 ] } },
{ "type": "Feature", "properties": { "name": "Duke of Cambridge", "classname": "Pubs, Bars and Inns", "street_name": "East Road", "postcode": "CB1 1BG", "url": "www.greeneking.co.uk" }, "geometry": { "type": "Point", "coordinates": [ 0.133426073893278, 52.204960745332919 ] } },
{ "type": "Feature", "properties": { "name": "Rotana Cafe", "classname": "Cafes, Snack Bars and Tea Rooms", "street_name": "Mill Road", "postcode": "CB1 2AS", "url": null }, "geometry": { "type": "Point", "coordinates": [ 0.135255662229257, 52.200692306435968 ] } },
{ "type": "Feature", "properties": { "name": "Robin Hood - Pub & Grill", "classname": "Pubs, Bars and Inns", "street_name": "Fulbourn Road", "postcode": "CB1 9JL", "url": "www.greeneking.co.uk" }, "geometry": { "type": "Point", "coordinates": [ 0.172306723490793, 52.1841356133638 ] } },
{ "type": "Feature", "properties": { "name": "Costa Coffee", "classname": "Cafes, Snack Bars and Tea Rooms", "street_name": "Coldhams Lane", "postcode": "CB1 3ET", "url": "www.costa.co.uk" }, "geometry": { "type": "Point", "coordinates": [ 0.1446698919239, 52.204977221327901 ] } },
{ "type": "Feature", "properties": { "name": "The Carpenters Arms", "classname": "Pubs, Bars and Inns", "street_name": "Victoria Road", "postcode": "CB4 3DZ", "url": "www.carpentersarmscambridge.com" }, "geometry": { "type": "Point", "coordinates": [ 0.114284045296561, 52.21577178978135 ] } },
{ "type": "Feature", "properties": { "name": "The Haymakers", "classname": "Pubs, Bars and Inns", "street_name": "High Street", "postcode": "CB4 1NG", "url": "www.individualpubs.co.uk" }, "geometry": { "type": "Point", "coordinates": [ 0.13950158687974, 52.217484529574492 ] } },
{ "type": "Feature", "properties": { "name": "Lola Lo", "classname": "Pubs, Bars and Inns", "street_name": "Guildhall Place", "postcode": "CB2 3AE", "url": "www.eclecticbars.co.uk/lo-la-lo" }, "geometry": { "type": "Point", "coordinates": [ 0.120104024215319, 52.204420213720979 ] } },
{ "type": "Feature", "properties": { "name": "Champion of the Thames", "classname": "Pubs, Bars and Inns", "street_name": "King Street", "postcode": "CB1 1LN", "url": "www.thechampionofthethames.com" }, "geometry": { "type": "Point", "coordinates": [ 0.124390546535593, 52.207299811709881 ] } },
{ "type": "Feature", "properties": { "name": "Cambridge Brewhouse", "classname": "Pubs, Bars and Inns", "street_name": "King Street", "postcode": "CB1 1LH", "url": "www.thecambridgebrewhouse.com" }, "geometry": { "type": "Point", "coordinates": [ 0.122276111971243, 52.207463726531891 ] } },
{ "type": "Feature", "properties": { "name": "Harriets", "classname": "Cafes, Snack Bars and Tea Rooms", "street_name": "Green Street", "postcode": "CB2 3JU", "url": "www.harrietscafetearooms.co.uk" }, "geometry": { "type": "Point", "coordinates": [ 0.118826008233017, 52.206626466092388 ] } },
{ "type": "Feature", "properties": { "name": "The Alexandra Arms", "classname": "Pubs, Bars and Inns", "street_name": "Gwydir Street", "postcode": "CB1 2LL", "url": null }, "geometry": { "type": "Point", "coordinates": [ 0.13938898403282, 52.203872633223106 ] } },
{ "type": "Feature", "properties": { "name": "The Garden Kitchen", "classname": "Cafes, Snack Bars and Tea Rooms", "street_name": "Mill Road", "postcode": "CB1 2AS", "url": null }, "geometry": { "type": "Point", "coordinates": [ 0.136547879728261, 52.20017435187728 ] } },
{ "type": "Feature", "properties": { "name": "The Box Cafe", "classname": "Cafes, Snack Bars and Tea Rooms", "street_name": "Gilbert Road", "postcode": "CB4 3NY", "url": null }, "geometry": { "type": "Point", "coordinates": [ 0.121336175445441, 52.21753361723372 ] } },
{ "type": "Feature", "properties": { "name": "The Box Cafe", "classname": "Cafes, Snack Bars and Tea Rooms", "street_name": "Norfolk Street", "postcode": "CB1 2LD", "url": null }, "geometry": { "type": "Point", "coordinates": [ 0.135938275022029, 52.204518738790696 ] } },
{ "type": "Feature", "properties": { "name": "Hidden Rooms", "classname": "Pubs, Bars and Inns", "street_name": "Jesus Lane", "postcode": "CB5 8BA", "url": "www.hiddenrooms.co.uk" }, "geometry": { "type": "Point", "coordinates": [ 0.119693546567843, 52.208247478442765 ] } },
{ "type": "Feature", "properties": { "name": "Costa Coffee", "classname": "Cafes, Snack Bars and Tea Rooms", "street_name": "Hills Road", "postcode": "CB2 0QQ", "url": "www.costa.co.uk" }, "geometry": { "type": "Point", "coordinates": [ 0.140992963646293, 52.1757429775585 ] } },
{ "type": "Feature", "properties": { "name": "The Rupert Brooke Pub", "classname": "Pubs, Bars and Inns", "street_name": "Broadway", "postcode": "CB3 9NQ", "url": "www.therupertbrooke.com" }, "geometry": { "type": "Point", "coordinates": [ 0.093566060548619, 52.181135199094783 ] } },
{ "type": "Feature", "properties": { "name": "Costa Coffee", "classname": "Cafes, Snack Bars and Tea Rooms", "street_name": "Hills Road", "postcode": "CB2 1LA", "url": "www.costa.co.uk" }, "geometry": { "type": "Point", "coordinates": [ 0.128994858092891, 52.197073643986833 ] } },
{ "type": "Feature", "properties": { "name": "Costa Coffee", "classname": "Cafes, Snack Bars and Tea Rooms", "street_name": "Fitzroy Street", "postcode": "CB1 1PS", "url": "www.costa.co.uk" }, "geometry": { "type": "Point", "coordinates": [ 0.133455431518075, 52.206794635231873 ] } },
{ "type": "Feature", "properties": { "name": "Costa Coffee", "classname": "Cafes, Snack Bars and Tea Rooms", "street_name": "Brookgate", "postcode": "CB1 2FF", "url": "www.costa.co.uk" }, "geometry": { "type": "Point", "coordinates": [ 0.133871955600533, 52.192614468030008 ] } },
{ "type": "Feature", "properties": { "name": "Costa Coffee", "classname": "Cafes, Snack Bars and Tea Rooms", "street_name": "St. Andrews Street", "postcode": "CB2 3BJ", "url": "www.costa.co.uk" }, "geometry": { "type": "Point", "coordinates": [ 0.121570588998631, 52.204023389358305 ] } },
{ "type": "Feature", "properties": { "name": "Joy Coffee Bar & Patisserie", "classname": "Cafes, Snack Bars and Tea Rooms", "street_name": "Hills Road", "postcode": "CB2 1NT", "url": null }, "geometry": { "type": "Point", "coordinates": [ 0.13110624120645, 52.195419646553091 ] } },
{ "type": "Feature", "properties": { "name": "The Coffee House", "classname": "Cafes, Snack Bars and Tea Rooms", "street_name": "Wulfstan Way", "postcode": "CB1 8QJ", "url": null }, "geometry": { "type": "Point", "coordinates": [ 0.151945559289626, 52.180849091295421 ] } },
{ "type": "Feature", "properties": { "name": "The Black Cat Cafe", "classname": "Cafes, Snack Bars and Tea Rooms", "street_name": "Mill Road", "postcode": "CB1 3AH", "url": "www.blackcatcafecambridge.co.uk" }, "geometry": { "type": "Point", "coordinates": [ 0.143341907898293, 52.198126845483145 ] } },
{ "type": "Feature", "properties": { "name": "The Blue Moon", "classname": "Pubs, Bars and Inns", "street_name": "Norfolk Street", "postcode": "CB1 2LF", "url": "www.cambridge.pub" }, "geometry": { "type": "Point", "coordinates": [ 0.13662761187331, 52.204884831154139 ] } },
{ "type": "Feature", "properties": { "name": "Elmtreecambridge Ltd", "classname": "Pubs, Bars and Inns", "street_name": "Orchard Street", "postcode": "CB1 1JT", "url": null }, "geometry": { "type": "Point", "coordinates": [ 0.129440053232662, 52.205158615789642 ] } },
{ "type": "Feature", "properties": { "name": "The Regal - Jd Wetherspoon", "classname": "Pubs, Bars and Inns", "street_name": "St Andrews Street", "postcode": "CB2 3AR", "url": "www.jdwetherspoon.co.uk" }, "geometry": { "type": "Point", "coordinates": [ 0.123593418946971, 52.202862991726363 ] } },
{ "type": "Feature", "properties": { "name": "The Queen Edith", "classname": "Pubs, Bars and Inns", "street_name": "Wulfstan Way", "postcode": "CB1 8QN", "url": "www.individualpubs.co.uk" }, "geometry": { "type": "Point", "coordinates": [ 0.152952949410049, 52.1814152039032 ] } },
{ "type": "Feature", "properties": { "name": "Boost Juice Bars", "classname": "Cafes, Snack Bars and Tea Rooms", "street_name": "Lion Yard", "postcode": "CB2 3NA", "url": "www.boostjuicebars.co.uk" }, "geometry": { "type": "Point", "coordinates": [ 0.12079228671545, 52.204766642329382 ] } },
{ "type": "Feature", "properties": { "name": "The Architect", "classname": "Pubs, Bars and Inns", "street_name": "Castle Street", "postcode": "CB3 0AH", "url": "www.everards.co.uk" }, "geometry": { "type": "Point", "coordinates": [ 0.113066879227488, 52.212025971514485 ] } },
{ "type": "Feature", "properties": { "name": "Hudson's Ale House", "classname": "Pubs, Bars and Inns", "street_name": "High Street", "postcode": "CB2 9HZ", "url": null }, "geometry": { "type": "Point", "coordinates": [ 0.112911522565828, 52.17451388488486 ] } },
{ "type": "Feature", "properties": { "name": "Wild Bean Cafe", "classname": "Cafes, Snack Bars and Tea Rooms", "street_name": "Teversham", "postcode": "CB5 8AA", "url": "www.wildbeancafe.com" }, "geometry": { "type": "Point", "coordinates": [ 0.181486932787828, 52.211472995794544 ] } },
{ "type": "Feature", "properties": { "name": "Starbucks Coffee Co UK Ltd", "classname": "Cafes, Snack Bars and Tea Rooms", "street_name": "Christs Lane", "postcode": "CB1 1NP", "url": "www.starbucks.co.uk" }, "geometry": { "type": "Point", "coordinates": [ 0.123048000243353, 52.205143341663081 ] } },
{ "type": "Feature", "properties": { "name": "Aromi Caffe Ltd", "classname": "Cafes, Snack Bars and Tea Rooms", "street_name": "Bene't Street", "postcode": "CB2 3QN", "url": "www.aromi.co.uk" }, "geometry": { "type": "Point", "coordinates": [ 0.11875312832137, 52.204172899240177 ] } },
{ "type": "Feature", "properties": { "name": "Starbucks Coffee Co UK Ltd", "classname": "Cafes, Snack Bars and Tea Rooms", "street_name": "Regent Street", "postcode": "CB2 1DP", "url": "www.starbucks.co.uk" }, "geometry": { "type": "Point", "coordinates": [ 0.125259253229353, 52.201277355616718 ] } },
{ "type": "Feature", "properties": { "name": "Starbucks Coffee Co UK Ltd", "classname": "Cafes, Snack Bars and Tea Rooms", "street_name": "St Andrews Street", "postcode": "CB2 3BJ", "url": "www.starbucks.co.uk" }, "geometry": { "type": "Point", "coordinates": [ 0.121356881443334, 52.203838392611317 ] } },
{ "type": "Feature", "properties": { "name": "Pret A Manger", "classname": "Cafes, Snack Bars and Tea Rooms", "street_name": "Petty Cury", "postcode": "CB2 3NE", "url": "www.pret.co.uk/en-gb/" }, "geometry": { "type": "Point", "coordinates": [ 0.121234005059662, 52.205252380350046 ] } },
{ "type": "Feature", "properties": { "name": "Pret A Manger", "classname": "Cafes, Snack Bars and Tea Rooms", "street_name": "Station Square", "postcode": "CB1", "url": "www.pret.co.uk/en-gb/" }, "geometry": { "type": "Point", "coordinates": [ 0.136302811588773, 52.193938204555806 ] } },
{ "type": "Feature", "properties": { "name": "Green Man - 199168", "classname": "Pubs, Bars and Inns", "street_name": "Trumpington", "postcode": "CB2 9HZ", "url": "www.thegreenmantrumpington.com" }, "geometry": { "type": "Point", "coordinates": [ 0.113110901833492, 52.176560518396386 ] } },
{ "type": "Feature", "properties": { "name": "The Grapes", "classname": "Pubs, Bars and Inns", "street_name": "Histon Road", "postcode": "CB4 3JB", "url": "www.thegrapes.co.uk" }, "geometry": { "type": "Point", "coordinates": [ 0.110660900178079, 52.21500036434994 ] } },
{ "type": "Feature", "properties": { "name": "The Edge Cafe", "classname": "Cafes, Snack Bars and Tea Rooms", "street_name": "Mill Road", "postcode": "CB1 3DF", "url": "www.theedgecafecambridge.com" }, "geometry": { "type": "Point", "coordinates": [ 0.153747049560388, 52.19657051653617 ] } },
{ "type": "Feature", "properties": { "name": "Soboro", "classname": "Cafes, Snack Bars and Tea Rooms", "street_name": "Petty Cury", "postcode": "CB2 3NE", "url": null }, "geometry": { "type": "Point", "coordinates": [ 0.121130359646564, 52.205227265740348 ] } },
{ "type": "Feature", "properties": { "name": "Caffe Nero", "classname": "Cafes, Snack Bars and Tea Rooms", "street_name": "Station Road", "postcode": "CB1 2JW", "url": "www.caffenero.co.uk/default.aspx" }, "geometry": { "type": "Point", "coordinates": [ 0.136622032533525, 52.194705755046613 ] } },
{ "type": "Feature", "properties": { "name": "Punt Yard", "classname": "Pubs, Bars and Inns", "street_name": "Quayside", "postcode": "CB5 8AB", "url": null }, "geometry": { "type": "Point", "coordinates": [ 0.117570352291292, 52.210074980174404 ] } },
{ "type": "Feature", "properties": { "name": "The Boot", "classname": "Pubs, Bars and Inns", "street_name": "High Street", "postcode": "CB24 9LG", "url": "www.boothiston.com" }, "geometry": { "type": "Point", "coordinates": [ 0.106332953197, 52.251611979211944 ] } },
{ "type": "Feature", "properties": { "name": "Espresso Library", "classname": "Cafes, Snack Bars and Tea Rooms", "street_name": "East Road", "postcode": "CB1 1BG", "url": "www.espressolibrary.com" }, "geometry": { "type": "Point", "coordinates": [ 0.131679466395988, 52.203328739889159 ] } },
{ "type": "Feature", "properties": { "name": "The Station Tavern", "classname": "Pubs, Bars and Inns", "street_name": "Station Square", "postcode": "CB1 2GA", "url": "www.thestationtavern.co.uk" }, "geometry": { "type": "Point", "coordinates": [ 0.137901101885961, 52.195258992832059 ] } },
{ "type": "Feature", "properties": { "name": "Thirsty Cambridge Ltd", "classname": "Pubs, Bars and Inns", "street_name": "Chesterton Road", "postcode": "CB4 1EN", "url": null }, "geometry": { "type": "Point", "coordinates": [ 0.126537306252831, 52.214247948827413 ] } },
{ "type": "Feature", "properties": { "name": "Cafe Foy", "classname": "Cafes, Snack Bars and Tea Rooms", "street_name": "Quayside", "postcode": "CB5 8AB", "url": null }, "geometry": { "type": "Point", "coordinates": [ 0.117373396142239, 52.209934641296762 ] } },
{ "type": "Feature", "properties": { "name": "The Old Ticket Office", "classname": "Pubs, Bars and Inns", "street_name": "Station Road", "postcode": "CB1 2JH", "url": "www.oldticketoffice.com" }, "geometry": { "type": "Point", "coordinates": [ 0.13783291110587, 52.194722494310241 ] } },
{ "type": "Feature", "properties": { "name": "Costa Coffee", "classname": "Cafes, Snack Bars and Tea Rooms", "street_name": "Cherry Hinton Road", "postcode": "CB1 7AA", "url": "www.costa.co.uk" }, "geometry": { "type": "Point", "coordinates": [ 0.136659437572754, 52.189111070676823 ] } },
{ "type": "Feature", "properties": { "name": "Costa Coffee", "classname": "Cafes, Snack Bars and Tea Rooms", "street_name": "Market Hill", "postcode": "CB2 3NJ", "url": "www.costa.co.uk" }, "geometry": { "type": "Point", "coordinates": [ 0.119185338932112, 52.205873663430438 ] } },
{ "type": "Feature", "properties": { "name": "Jamaica Blue", "classname": "Cafes, Snack Bars and Tea Rooms", "street_name": "St Tibbs Row", "postcode": "CB2 3ET", "url": null }, "geometry": { "type": "Point", "coordinates": [ 0.120716082653293, 52.204549500046639 ] } },
{ "type": "Feature", "properties": { "name": "B Tap Baron", "classname": "Cafes, Snack Bars and Tea Rooms", "street_name": "St Tibbs Row", "postcode": "CB2 3ET", "url": null }, "geometry": { "type": "Point", "coordinates": [ 0.121621181302974, 52.204777827631652 ] } },
{ "type": "Feature", "properties": { "name": "Coffee Tree Cambridge", "classname": "Cafes, Snack Bars and Tea Rooms", "street_name": "Histon Road", "postcode": "CB4 3JP", "url": null }, "geometry": { "type": "Point", "coordinates": [ 0.111786923287579, 52.219296324644894 ] } },
{ "type": "Feature", "properties": { "name": "Rock of Virtue Eat Out", "classname": "Cafes, Snack Bars and Tea Rooms", "street_name": "Cherry Hinton Road", "postcode": "CB1 7AA", "url": null }, "geometry": { "type": "Point", "coordinates": [ 0.139476025229871, 52.188629317867836 ] } },
{ "type": "Feature", "properties": { "name": "Charlie's Coffee Company & Pizzeria", "classname": "Cafes, Snack Bars and Tea Rooms", "street_name": "Burleigh Street", "postcode": "CB1 1DJ", "url": null }, "geometry": { "type": "Point", "coordinates": [ 0.13346524270034, 52.205472595891862 ] } },
{ "type": "Feature", "properties": { "name": "The Standard Pub Ltd", "classname": "Pubs, Bars and Inns", "street_name": "Mill Road", "postcode": "CB1 3NL", "url": "www.cambridge.pub" }, "geometry": { "type": "Point", "coordinates": [ 0.149756006238818, 52.197012031353424 ] } },
{ "type": "Feature", "properties": { "name": "Histon Station House Ltd", "classname": "Cafes, Snack Bars and Tea Rooms", "street_name": "Station Road", "postcode": "CB24 9LF", "url": "www.histonstationhouse.com" }, "geometry": { "type": "Point", "coordinates": [ 0.110389254677674, 52.242370281433942 ] } },
{ "type": "Feature", "properties": { "name": "Bravo Cafe", "classname": "Cafes, Snack Bars and Tea Rooms", "street_name": "Mill Road", "postcode": "CB1 3LP", "url": null }, "geometry": { "type": "Point", "coordinates": [ 0.142399709278411, 52.198009067959994 ] } },
{ "type": "Feature", "properties": { "name": "Caffe Nero", "classname": "Cafes, Snack Bars and Tea Rooms", "street_name": "St Andrews Street", "postcode": "CB2 3BJ", "url": "www.caffenero.co.uk/default.aspx" }, "geometry": { "type": "Point", "coordinates": [ 0.121823455537366, 52.204108767447522 ] } },
{ "type": "Feature", "properties": { "name": "The Box Room Board Game Cafe Ltd", "classname": "Cafes, Snack Bars and Tea Rooms", "street_name": "Regent Street", "postcode": "CB2 1DP", "url": null }, "geometry": { "type": "Point", "coordinates": [ 0.12579342483366, 52.200818124972422 ] } },
{ "type": "Feature", "properties": { "name": "Barbarella Cafe", "classname": "Cafes, Snack Bars and Tea Rooms", "street_name": "High Street", "postcode": "CB4 1NQ", "url": null }, "geometry": { "type": "Point", "coordinates": [ 0.138260413612853, 52.217246266399698 ] } },
{ "type": "Feature", "properties": { "name": "Kim's Bulgogi Ltd", "classname": "Cafes, Snack Bars and Tea Rooms", "street_name": "Regent Street", "postcode": "CB2 1AW", "url": null }, "geometry": { "type": "Point", "coordinates": [ 0.12659205741305, 52.200381105469468 ] } },
{ "type": "Feature", "properties": { "name": "Stir Cambridge", "classname": "Cafes, Snack Bars and Tea Rooms", "street_name": "Chesterton Road", "postcode": "CB4 1BG", "url": null }, "geometry": { "type": "Point", "coordinates": [ 0.13298309374839, 52.216181837191812 ] } },
{ "type": "Feature", "properties": { "name": "Brewdog Cambridge", "classname": "Pubs, Bars and Inns", "street_name": "Bene't Street", "postcode": "CB2 3QN", "url": "www.brewdog.com" }, "geometry": { "type": "Point", "coordinates": [ 0.118780533687554, 52.203979973987238 ] } },
{ "type": "Feature", "properties": { "name": "The Tram Depot", "classname": "Pubs, Bars and Inns", "street_name": "Dover Street", "postcode": "CB1 1DY", "url": "www.everards.co.uk" }, "geometry": { "type": "Point", "coordinates": [ 0.132810177578897, 52.204630173464707 ] } },
{ "type": "Feature", "properties": { "name": "Costa Coffee", "classname": "Cafes, Snack Bars and Tea Rooms", "street_name": "Cambridge Road", "postcode": "CB24 6AY", "url": "www.costa.co.uk" }, "geometry": { "type": "Point", "coordinates": [ 0.154351955041356, 52.23906466307713 ] } },
{ "type": "Feature", "properties": { "name": "Pret A Manger", "classname": "Cafes, Snack Bars and Tea Rooms", "street_name": "Market Street", "postcode": "CB2 3NZ", "url": "www.pret.co.uk/en-gb/" }, "geometry": { "type": "Point", "coordinates": [ 0.119738882216502, 52.205818765771426 ] } },
{ "type": "Feature", "properties": { "name": "Pret A Manger", "classname": "Cafes, Snack Bars and Tea Rooms", "street_name": "Station Square", "postcode": "CB1 2GA", "url": "www.pret.co.uk/en-gb/" }, "geometry": { "type": "Point", "coordinates": [ 0.136666610458452, 52.194963923348595 ] } },
{ "type": "Feature", "properties": { "name": "Trockel Ulmann & Freunde", "classname": "Cafes, Snack Bars and Tea Rooms", "street_name": "Pembroke Street", "postcode": "CB2 3QY", "url": null }, "geometry": { "type": "Point", "coordinates": [ 0.119224529342165, 52.20239297126237 ] } },
{ "type": "Feature", "properties": { "name": "B.L.D's Cafe Restaurant", "classname": "Cafes, Snack Bars and Tea Rooms", "street_name": "Mill Road", "postcode": "CB1 3NF", "url": null }, "geometry": { "type": "Point", "coordinates": [ 0.14463135115792, 52.197554897728203 ] } },
{ "type": "Feature", "properties": { "name": "Indigo Coffee House", "classname": "Cafes, Snack Bars and Tea Rooms", "street_name": "St Edwards Passage", "postcode": "CB2 3PJ", "url": null }, "geometry": { "type": "Point", "coordinates": [ 0.11816984402119, 52.204525069397612 ] } },
{ "type": "Feature", "properties": { "name": "The Kingston Arms", "classname": "Pubs, Bars and Inns", "street_name": "Kingston Street", "postcode": "CB1 2NU", "url": null }, "geometry": { "type": "Point", "coordinates": [ 0.139674730514656, 52.200378486335865 ] } },
{ "type": "Feature", "properties": { "name": "The Earl of Beaconsfield", "classname": "Pubs, Bars and Inns", "street_name": "Mill Road", "postcode": "CB1 3AA", "url": null }, "geometry": { "type": "Point", "coordinates": [ 0.142320711892274, 52.198496081378558 ] } },
{ "type": "Feature", "properties": { "name": "Botanic Garden Cafe", "classname": "Cafes, Snack Bars and Tea Rooms", "street_name": "Brookside", "postcode": "CB2 1JE", "url": null }, "geometry": { "type": "Point", "coordinates": [ 0.123331213148575, 52.194909654827597 ] } },
{ "type": "Feature", "properties": { "name": "The Queen Edith", "classname": "Pubs, Bars and Inns", "street_name": "Godwin Way", "postcode": "CB1 8QP", "url": null }, "geometry": { "type": "Point", "coordinates": [ 0.154729469829351, 52.181247873812282 ] } },
{ "type": "Feature", "properties": { "name": "La Raza", "classname": "Pubs, Bars and Inns", "street_name": "Rose Crescent", "postcode": "CB2 3LL", "url": null }, "geometry": { "type": "Point", "coordinates": [ 0.118864828620327, 52.206212127605752 ] } },
{ "type": "Feature", "properties": { "name": "The Cambridge Chop House", "classname": "Pubs, Bars and Inns", "street_name": "Kings Parade", "postcode": "CB2 1SJ", "url": "www.cambscuisine.co.uk" }, "geometry": { "type": "Point", "coordinates": [ 0.117774781476329, 52.203911693828026 ] } },
{ "type": "Feature", "properties": { "name": "Livingstones", "classname": "Cafes, Snack Bars and Tea Rooms", "street_name": "City Centre", "postcode": "CB2 3AR", "url": null }, "geometry": { "type": "Point", "coordinates": [ 0.124053183809759, 52.202683868050464 ] } },
{ "type": "Feature", "properties": { "name": "The Box Cafe", "classname": "Cafes, Snack Bars and Tea Rooms", "street_name": "City Centre", "postcode": "CB1 2LF", "url": null }, "geometry": { "type": "Point", "coordinates": [ 0.135784196769071, 52.20469327930185 ] } },
{ "type": "Feature", "properties": { "name": "Delice De France", "classname": "Cafes, Snack Bars and Tea Rooms", "street_name": "City Centre", "postcode": "CB1 2JW", "url": null }, "geometry": { "type": "Point", "coordinates": [ 0.137435069634316, 52.19426840004467 ] } },
{ "type": "Feature", "properties": { "name": "A M T Coffee", "classname": "Cafes, Snack Bars and Tea Rooms", "street_name": "Station Road", "postcode": "CB1 2JH", "url": "amtcoffee.co.uk" }, "geometry": { "type": "Point", "coordinates": [ 0.137172272485158, 52.193670681619984 ] } },
{ "type": "Feature", "properties": { "name": "La Patissier", "classname": "Cafes, Snack Bars and Tea Rooms", "street_name": "St Johns Street", "postcode": "CB2 1TW", "url": null }, "geometry": { "type": "Point", "coordinates": [ 0.118263898966625, 52.20803933651321 ] } },
{ "type": "Feature", "properties": { "name": "Zhong Hua Snacks", "classname": "Cafes, Snack Bars and Tea Rooms", "street_name": "Norfolk Street", "postcode": "CB1 2LD", "url": null }, "geometry": { "type": "Point", "coordinates": [ 0.134596332644193, 52.204948572526831 ] } },
{ "type": "Feature", "properties": { "name": "Lola Lo", "classname": "Pubs, Bars and Inns", "street_name": "City Centre", "postcode": "CB2 3QF", "url": "www.eclecticbars.co.uk/lo-la-lo" }, "geometry": { "type": "Point", "coordinates": [ 0.119941339481816, 52.204538235404463 ] } },
{ "type": "Feature", "properties": { "name": "Michaelhouse Cafe", "classname": "Cafes, Snack Bars and Tea Rooms", "street_name": "Trinity Street", "postcode": "CB2 1SU", "url": null }, "geometry": { "type": "Point", "coordinates": [ 0.118214560471207, 52.206079919854872 ] } },
{ "type": "Feature", "properties": { "name": "Cornerstone Cafe", "classname": "Cafes, Snack Bars and Tea Rooms", "street_name": "City Centre", "postcode": "CB1 2AZ", "url": null }, "geometry": { "type": "Point", "coordinates": [ 0.145496113682283, 52.197584142720892 ] } },
{ "type": "Feature", "properties": { "name": "Arena", "classname": "Cafes, Snack Bars and Tea Rooms", "street_name": "Burleigh Street", "postcode": "CB1 1DG", "url": null }, "geometry": { "type": "Point", "coordinates": [ 0.132368549531134, 52.20640963299833 ] } },
{ "type": "Feature", "properties": { "name": "Wine Bar", "classname": "Pubs, Bars and Inns", "street_name": "Mill Road", "postcode": "CB1 3NF", "url": null }, "geometry": { "type": "Point", "coordinates": [ 0.144059879277631, 52.197599450572433 ] } },
{ "type": "Feature", "properties": { "name": "Bread & Butter", "classname": "Cafes, Snack Bars and Tea Rooms", "street_name": "Milton Road", "postcode": "CB4 1JY", "url": null }, "geometry": { "type": "Point", "coordinates": [ 0.125632561246492, 52.214920647661181 ] } },
{ "type": "Feature", "properties": { "name": "The Clarendon Arms", "classname": "Pubs, Bars and Inns", "street_name": "Clarendon Street", "postcode": "CB1 1JX", "url": null }, "geometry": { "type": "Point", "coordinates": [ 0.127513738899764, 52.204662799597514 ] } },
{ "type": "Feature", "properties": { "name": "Pint Shop", "classname": "Pubs, Bars and Inns", "street_name": "Peas Hill", "postcode": "CB2 3PP", "url": null }, "geometry": { "type": "Point", "coordinates": [ 0.119163846090499, 52.20419250452035 ] } },
{ "type": "Feature", "properties": { "name": "Cafe Oriental Dumpling Bar", "classname": "Cafes, Snack Bars and Tea Rooms", "street_name": "Burleigh Street", "postcode": "CB1 1DG", "url": null }, "geometry": { "type": "Point", "coordinates": [ 0.132411558642775, 52.206390871097803 ] } },
{ "type": "Feature", "properties": { "name": "The Cricketeers", "classname": "Pubs, Bars and Inns", "street_name": "Melbourne Place", "postcode": "CB1 1EQ", "url": null }, "geometry": { "type": "Point", "coordinates": [ 0.12959940451375, 52.204971400045437 ] } },
{ "type": "Feature", "properties": { "name": "Crepeaffaire", "classname": "Cafes, Snack Bars and Tea Rooms", "street_name": "Bridge Street", "postcode": "CB2 1UR", "url": "www.crepeaffaire.com" }, "geometry": { "type": "Point", "coordinates": [ 0.118549024070991, 52.208187088772036 ] } },
{ "type": "Feature", "properties": { "name": "Hot Numbers", "classname": "Cafes, Snack Bars and Tea Rooms", "street_name": "Trumpington Street", "postcode": "CB2 1QA", "url": null }, "geometry": { "type": "Point", "coordinates": [ 0.122097257832693, 52.198492721095391 ] } },
{ "type": "Feature", "properties": { "name": "Bread & Meat", "classname": "Cafes, Snack Bars and Tea Rooms", "street_name": "Bene't Street", "postcode": "CB2 3QN", "url": null }, "geometry": { "type": "Point", "coordinates": [ 0.118311455401656, 52.204117879084514 ] } },
{ "type": "Feature", "properties": { "name": "Novi", "classname": "Pubs, Bars and Inns", "street_name": "Regent Street", "postcode": "CB2 1DB", "url": null }, "geometry": { "type": "Point", "coordinates": [ 0.124580322864592, 52.201984677220366 ] } },
{ "type": "Feature", "properties": { "name": "The Castle Bar", "classname": "Pubs, Bars and Inns", "street_name": "St Andrews Street", "postcode": "CB2 3AR", "url": null }, "geometry": { "type": "Point", "coordinates": [ 0.123746498805984, 52.203004113983056 ] } },
{ "type": "Feature", "properties": { "name": "Hotel Chocolat Cafe", "classname": "Cafes, Snack Bars and Tea Rooms", "street_name": "City Centre", "postcode": "CB2 3NA", "url": "www.hotelchocolat.com" }, "geometry": { "type": "Point", "coordinates": [ 0.12105566672541, 52.204581167219111 ] } },
{ "type": "Feature", "properties": { "name": "Harpur's Cafe", "classname": "Cafes, Snack Bars and Tea Rooms", "street_name": "Cherry Hinton Road", "postcode": "CB1 7AG", "url": null }, "geometry": { "type": "Point", "coordinates": [ 0.140742551304925, 52.188498443183271 ] } },
{ "type": "Feature", "properties": { "name": "Stir", "classname": "Cafes, Snack Bars and Tea Rooms", "street_name": "Chesterton Road", "postcode": "CB4 1BG", "url": null }, "geometry": { "type": "Point", "coordinates": [ 0.13298309374839, 52.216181837191812 ] } },
{ "type": "Feature", "properties": { "name": "The Royal Standard", "classname": "Pubs, Bars and Inns", "street_name": "Mill Road", "postcode": "CB1 3NL", "url": null }, "geometry": { "type": "Point", "coordinates": [ 0.149756006238818, 52.197012031353424 ] } },
{ "type": "Feature", "properties": { "name": "The Burleigh Arms", "classname": "Pubs, Bars and Inns", "street_name": "Newmarket Road", "postcode": "CB5 8EG", "url": "www.wellsandco.com/" }, "geometry": { "type": "Point", "coordinates": [ 0.132808628567256, 52.208263077048997 ] } },
{ "type": "Feature", "properties": { "name": "Old Bicycle Shop", "classname": "Pubs, Bars and Inns", "street_name": "Regent Street", "postcode": "CB2 1DP", "url": "www.citypubcompany.com/" }, "geometry": { "type": "Point", "coordinates": [ 0.126846720795805, 52.199585209707791 ] } },
{ "type": "Feature", "properties": { "name": "The Senate", "classname": "Cafes, Snack Bars and Tea Rooms", "street_name": "St Marys Passage", "postcode": "CB2 3PQ", "url": null }, "geometry": { "type": "Point", "coordinates": [ 0.118134438219667, 52.205011284068163 ] } },
{ "type": "Feature", "properties": { "name": "Rockers Steakhouse", "classname": "Pubs, Bars and Inns", "street_name": "Cherry Hinton", "postcode": "CB1 7EA", "url": null }, "geometry": { "type": "Point", "coordinates": [ 0.13699211776074, 52.190220963957891 ] } },
{ "type": "Feature", "properties": { "name": "Espresso Lane", "classname": "Cafes, Snack Bars and Tea Rooms", "street_name": "City Centre", "postcode": "CB2 3RD", "url": null }, "geometry": { "type": "Point", "coordinates": [ 0.118192861439019, 52.202240633939937 ] } },
{ "type": "Feature", "properties": { "name": "Costa Coffee", "classname": "Cafes, Snack Bars and Tea Rooms", "street_name": "Hills Road", "postcode": "CB2 0QQ", "url": "www.costa.co.uk" }, "geometry": { "type": "Point", "coordinates": [ 0.140418168258224, 52.174737281986928 ] } },
{ "type": "Feature", "properties": { "name": "Cafe Blue Sage", "classname": "Cafes, Snack Bars and Tea Rooms", "street_name": "Mill Road", "postcode": "CB1 3NF", "url": null }, "geometry": { "type": "Point", "coordinates": [ 0.144149746408809, 52.197581632068449 ] } },
{ "type": "Feature", "properties": { "name": "121", "classname": "Cafes, Snack Bars and Tea Rooms", "street_name": "Milton Road", "postcode": "CB4 1XE", "url": null }, "geometry": { "type": "Point", "coordinates": [ 0.133142402122641, 52.220117388539869 ] } },
{ "type": "Feature", "properties": { "name": "Millworks", "classname": "Pubs, Bars and Inns", "street_name": "Newnham", "postcode": "CB3 9EY", "url": "www.cambscuisine.co.uk" }, "geometry": { "type": "Point", "coordinates": [ 0.114105524475318, 52.199067745352657 ] } },
{ "type": "Feature", "properties": { "name": "Costa Coffee", "classname": "Cafes, Snack Bars and Tea Rooms", "street_name": "City Centre", "postcode": "CB2 3AX", "url": "www.costa.co.uk" }, "geometry": { "type": "Point", "coordinates": [ 0.121657468116804, 52.204003843660523 ] } },
{ "type": "Feature", "properties": { "name": "Liutaio", "classname": "Cafes, Snack Bars and Tea Rooms", "street_name": "Mill Road", "postcode": "CB1 3NF", "url": null }, "geometry": { "type": "Point", "coordinates": [ 0.145174800599482, 52.197293239554462 ] } },
{ "type": "Feature", "properties": { "name": "The Petersfield", "classname": "Pubs, Bars and Inns", "street_name": "Sturton Street", "postcode": "CB1 2QA", "url": "www.citypubcompany.com/" }, "geometry": { "type": "Point", "coordinates": [ 0.140742286811573, 52.20127633129659 ] } },
{ "type": "Feature", "properties": { "name": "Coffee Shop", "classname": "Cafes, Snack Bars and Tea Rooms", "street_name": "Mill Road", "postcode": "CB1 2AS", "url": null }, "geometry": { "type": "Point", "coordinates": [ 0.136528084741851, 52.200066803882159 ] } },
{ "type": "Feature", "properties": { "name": "Bould Brothers", "classname": "Cafes, Snack Bars and Tea Rooms", "street_name": "Round Church Street", "postcode": "CB5 8AD", "url": null }, "geometry": { "type": "Point", "coordinates": [ 0.118658579274629, 52.208643725842357 ] } },
{ "type": "Feature", "properties": { "name": "Scholars", "classname": "Cafes, Snack Bars and Tea Rooms", "street_name": "Tenison Road", "postcode": "CB1 2DN", "url": null }, "geometry": { "type": "Point", "coordinates": [ 0.135727448565301, 52.196799143473584 ] } },
{ "type": "Feature", "properties": { "name": "The Locker", "classname": "Cafes, Snack Bars and Tea Rooms", "street_name": "King Street", "postcode": "CB1 1LN", "url": null }, "geometry": { "type": "Point", "coordinates": [ 0.123657220223841, 52.207268042135105 ] } },
{ "type": "Feature", "properties": { "name": "The Brook", "classname": "Pubs, Bars and Inns", "street_name": "Brookfields", "postcode": "CB1 3NW", "url": "www.greeneking.co.uk" }, "geometry": { "type": "Point", "coordinates": [ 0.155300475041137, 52.196074538689075 ] } },
{ "type": "Feature", "properties": { "name": "White Swan", "classname": "Pubs, Bars and Inns", "street_name": "Mill Road", "postcode": "CB1 2AZ", "url": "www.greeneking.co.uk" }, "geometry": { "type": "Point", "coordinates": [ 0.139259981255749, 52.199360892866551 ] } },
{ "type": "Feature", "properties": { "name": "2648", "classname": "Pubs, Bars and Inns", "street_name": "Trinity Street", "postcode": "CB2 1TB", "url": null }, "geometry": { "type": "Point", "coordinates": [ 0.118398933998253, 52.206571183677703 ] } },
{ "type": "Feature", "properties": { "name": "No. 30 Cambridge", "classname": "Cafes, Snack Bars and Tea Rooms", "street_name": "Chesterton Road", "postcode": "CB4 3AX", "url": null }, "geometry": { "type": "Point", "coordinates": [ 0.125361224994846, 52.214143234377616 ] } },
{ "type": "Feature", "properties": { "name": "Smokeworks", "classname": "Pubs, Bars and Inns", "street_name": "Station Road", "postcode": "CB1 2JB", "url": "www.cambscuisine.co.uk" }, "geometry": { "type": "Point", "coordinates": [ 0.131451995738785, 52.195214675527204 ] } },
{ "type": "Feature", "properties": { "name": "The Waterman", "classname": "Pubs, Bars and Inns", "street_name": "Chesterton Road", "postcode": "CB4 3AX", "url": "www.citypubcompany.com/" }, "geometry": { "type": "Point", "coordinates": [ 0.125461461704891, 52.214096470722083 ] } },
{ "type": "Feature", "properties": { "name": "Abantu", "classname": "Cafes, Snack Bars and Tea Rooms", "street_name": "Hobson Street", "postcode": "CB1 1NL", "url": null }, "geometry": { "type": "Point", "coordinates": [ 0.121596631197279, 52.207026326056578 ] } },
{ "type": "Feature", "properties": { "name": "Costa Coffee", "classname": "Cafes, Snack Bars and Tea Rooms", "street_name": "Fitzroy Street", "postcode": "CB1 1PS", "url": "www.costa.co.uk" }, "geometry": { "type": "Point", "coordinates": [ 0.133346607884465, 52.206661719248551 ] } },
{ "type": "Feature", "properties": { "name": "Chill #2", "classname": "Cafes, Snack Bars and Tea Rooms", "street_name": "Station Road", "postcode": "CB1 2GA", "url": null }, "geometry": { "type": "Point", "coordinates": [ 0.137586439202012, 52.194983236308225 ] } },
{ "type": "Feature", "properties": { "name": "Waggon and Horses", "classname": "Pubs, Bars and Inns", "street_name": "High Street", "postcode": "CB24 6DF", "url": "www.elgoods-brewery.co.uk" }, "geometry": { "type": "Point", "coordinates": [ 0.163372636048669, 52.244744450826964 ] } },
{ "type": "Feature", "properties": { "name": "The Ship", "classname": "Pubs, Bars and Inns", "street_name": "Northfield Avenue", "postcode": "CB4 2LG", "url": "www.wellsandco.com/" }, "geometry": { "type": "Point", "coordinates": [ 0.128821475916776, 52.231093437130646 ] } },
{ "type": "Feature", "properties": { "name": "Parker's Tavern", "classname": "Pubs, Bars and Inns", "street_name": "Regent Street", "postcode": "CB2 1AD", "url": null }, "geometry": { "type": "Point", "coordinates": [ 0.125053143205385, 52.20217129899585 ] } },
{ "type": "Feature", "properties": { "name": "5 Blends Coffee House", "classname": "Cafes, Snack Bars and Tea Rooms", "street_name": "Mill Road", "postcode": "CB1 2AD", "url": null }, "geometry": { "type": "Point", "coordinates": [ 0.134638570347197, 52.200946258745695 ] } },
{ "type": "Feature", "properties": { "name": "Modigliahi", "classname": "Cafes, Snack Bars and Tea Rooms", "street_name": "Mill Road", "postcode": "CB1 2AS", "url": null }, "geometry": { "type": "Point", "coordinates": [ 0.135456484167545, 52.200607743252547 ] } },
{ "type": "Feature", "properties": { "name": "Mercado Central", "classname": "Pubs, Bars and Inns", "street_name": "Green Street", "postcode": "CB2 3JX", "url": null }, "geometry": { "type": "Point", "coordinates": [ 0.118669082236105, 52.206404476698509 ] } },
{ "type": "Feature", "properties": { "name": "B-Tap Baron", "classname": "Cafes, Snack Bars and Tea Rooms", "street_name": "Lion Yard", "postcode": "CB2 3NA", "url": null }, "geometry": { "type": "Point", "coordinates": [ 0.120724051051689, 52.204686038754204 ] } },
{ "type": "Feature", "properties": { "name": "Pausa Coffee Shop", "classname": "Cafes, Snack Bars and Tea Rooms", "street_name": "Fen Ditton", "postcode": "CB5 8JL", "url": "www.dunelm.com" }, "geometry": { "type": "Point", "coordinates": [ 0.146403568544774, 52.209122516466053 ] } },
{ "type": "Feature", "properties": { "name": "Cafe 24", "classname": "Cafes, Snack Bars and Tea Rooms", "street_name": "Regent Street", "postcode": "CB2 1DB", "url": null }, "geometry": { "type": "Point", "coordinates": [ 0.125013646787666, 52.201650459316575 ] } },
{ "type": "Feature", "properties": { "name": "Caffe Nero", "classname": "Cafes, Snack Bars and Tea Rooms", "street_name": "City Centre", "postcode": "CB2 3AX", "url": "www.caffenero.co.uk/default.aspx" }, "geometry": { "type": "Point", "coordinates": [ 0.122106056769335, 52.20389686683491 ] } },
{ "type": "Feature", "properties": { "name": "Smokeworks Tap", "classname": "Pubs, Bars and Inns", "street_name": "Bene't Street", "postcode": "CB2 3QN", "url": null }, "geometry": { "type": "Point", "coordinates": [ 0.118419107326609, 52.203950490781274 ] } },
{ "type": "Feature", "properties": { "name": "Foy", "classname": "Cafes, Snack Bars and Tea Rooms", "street_name": "Quayside", "postcode": "CB5 8AB", "url": null }, "geometry": { "type": "Point", "coordinates": [ 0.117373396142239, 52.209934641296762 ] } },
{ "type": "Feature", "properties": { "name": "Bould Brothers Coffee", "classname": "Cafes, Snack Bars and Tea Rooms", "street_name": "Regent Street", "postcode": "CB2 1DP", "url": null }, "geometry": { "type": "Point", "coordinates": [ 0.126430398388954, 52.200060300812105 ] } },
{ "type": "Feature", "properties": { "name": "Thrive", "classname": "Cafes, Snack Bars and Tea Rooms", "street_name": "Norfolk Street", "postcode": "CB1 2LD", "url": null }, "geometry": { "type": "Point", "coordinates": [ 0.13434903669672, 52.20498002277693 ] } },
{ "type": "Feature", "properties": { "name": "Scotts", "classname": "Cafes, Snack Bars and Tea Rooms", "street_name": "Mill Road", "postcode": "CB1 2AZ", "url": null }, "geometry": { "type": "Point", "coordinates": [ 0.139534325691042, 52.199283982721951 ] } },
{ "type": "Feature", "properties": { "name": "Little Petra", "classname": "Cafes, Snack Bars and Tea Rooms", "street_name": "Mill Road", "postcode": "CB1 2BD", "url": null }, "geometry": { "type": "Point", "coordinates": [ 0.137105171771933, 52.199894497440113 ] } },
{ "type": "Feature", "properties": { "name": "Old Ticket Office", "classname": "Pubs, Bars and Inns", "street_name": "Station Square", "postcode": "CB1 2GA", "url": "www.citypubcompany.com/" }, "geometry": { "type": "Point", "coordinates": [ 0.137586439202012, 52.194983236308225 ] } },
{ "type": "Feature", "properties": { "name": "Area Cafe", "classname": "Cafes, Snack Bars and Tea Rooms", "street_name": "Castle Street", "postcode": "CB3 0AJ", "url": null }, "geometry": { "type": "Point", "coordinates": [ 0.112383216044513, 52.21335102221704 ] } },
{ "type": "Feature", "properties": { "name": "Town and Gown", "classname": "Pubs, Bars and Inns", "street_name": "Market Passage", "postcode": "CB2 3PF", "url": "www.mcmullens.co.uk" }, "geometry": { "type": "Point", "coordinates": [ 0.119916350284405, 52.206472011573354 ] } },
{ "type": "Feature", "properties": { "name": "Cafe W", "classname": "Cafes, Snack Bars and Tea Rooms", "street_name": "Sidney Street", "postcode": "CB2 3HG", "url": "www.waterstones.com/" }, "geometry": { "type": "Point", "coordinates": [ 0.12095290016242, 52.206417427538995 ] } },
{ "type": "Feature", "properties": { "name": "Momaliks", "classname": "Pubs, Bars and Inns", "street_name": "Unwin Square", "postcode": "CB4 2AD", "url": null }, "geometry": { "type": "Point", "coordinates": [ 0.117999584415862, 52.235095209120807 ] } },
{ "type": "Feature", "properties": { "name": "Coffee by Real Eating Co", "classname": "Cafes, Snack Bars and Tea Rooms", "street_name": "Petty Cury", "postcode": "CB2 3NE", "url": null }, "geometry": { "type": "Point", "coordinates": [ 0.121234005059662, 52.205252380350046 ] } },
{ "type": "Feature", "properties": { "name": "Espresso Library", "classname": "Cafes, Snack Bars and Tea Rooms", "street_name": "St Andrews Street", "postcode": "CB2 3AX", "url": null }, "geometry": { "type": "Point", "coordinates": [ 0.122886621393585, 52.203999733131162 ] } },
{ "type": "Feature", "properties": { "name": "Hidden", "classname": "Pubs, Bars and Inns", "street_name": "Jesus Lane", "postcode": "CB5 8BA", "url": null }, "geometry": { "type": "Point", "coordinates": [ 0.119730572393221, 52.208102938310176 ] } },
{ "type": "Feature", "properties": { "name": "T4 Tea for U", "classname": "Cafes, Snack Bars and Tea Rooms", "street_name": "City Centre", "postcode": "CB2 3HX", "url": "www.t4.co.uk/" }, "geometry": { "type": "Point", "coordinates": [ 0.120150679740242, 52.206782531829347 ] } },
{ "type": "Feature", "properties": { "name": "The Lab", "classname": "Pubs, Bars and Inns", "street_name": "Regent Street", "postcode": "CB2 1DP", "url": null }, "geometry": { "type": "Point", "coordinates": [ 0.12652802734592, 52.199959628697044 ] } },
{ "type": "Feature", "properties": { "name": "Aromi", "classname": "Cafes, Snack Bars and Tea Rooms", "street_name": "Bene't Street", "postcode": "CB2 3QN", "url": null }, "geometry": { "type": "Point", "coordinates": [ 0.11875312832137, 52.204172899240177 ] } },
{ "type": "Feature", "properties": { "name": "Oh", "classname": "Pubs, Bars and Inns", "street_name": "City Centre", "postcode": "CB2 3DT", "url": null }, "geometry": { "type": "Point", "coordinates": [ 0.122197337767562, 52.203355691962152 ] } },
{ "type": "Feature", "properties": { "name": "Mash", "classname": "Pubs, Bars and Inns", "street_name": "City Centre", "postcode": "CB2 3HX", "url": null }, "geometry": { "type": "Point", "coordinates": [ 0.120056165576956, 52.206334617894044 ] } },
{ "type": "Feature", "properties": { "name": "Deluna Cafe", "classname": "Cafes, Snack Bars and Tea Rooms", "street_name": "Burleigh Street", "postcode": "CB1 1DG", "url": null }, "geometry": { "type": "Point", "coordinates": [ 0.133139390944113, 52.205972162707248 ] } },
{ "type": "Feature", "properties": { "name": "Hanami", "classname": "Cafes, Snack Bars and Tea Rooms", "street_name": "Burleigh Street", "postcode": "CB1 1DG", "url": null }, "geometry": { "type": "Point", "coordinates": [ 0.133750832561188, 52.205629292115624 ] } },
{ "type": "Feature", "properties": { "name": "Urban Butterfly", "classname": "Cafes, Snack Bars and Tea Rooms", "street_name": "Regent Street", "postcode": "CB2 1AB", "url": null }, "geometry": { "type": "Point", "coordinates": [ 0.125493591369503, 52.201587865587982 ] } },
{ "type": "Feature", "properties": { "name": "Ji", "classname": "Cafes, Snack Bars and Tea Rooms", "street_name": "Regent Street", "postcode": "CB2 1DP", "url": null }, "geometry": { "type": "Point", "coordinates": [ 0.12698649429526, 52.199447809238571 ] } },
{ "type": "Feature", "properties": { "name": "Pinch", "classname": "Cafes, Snack Bars and Tea Rooms", "street_name": "Rose Crescent", "postcode": "CB2 3LL", "url": null }, "geometry": { "type": "Point", "coordinates": [ 0.118937517645896, 52.206201830923462 ] } },
{ "type": "Feature", "properties": { "name": "The Six Six", "classname": "Pubs, Bars and Inns", "street_name": "East Road", "postcode": "CB1 1DB", "url": null }, "geometry": { "type": "Point", "coordinates": [ 0.134032525137199, 52.205399391206413 ] } },
{ "type": "Feature", "properties": { "name": "Tall Trees", "classname": "Pubs, Bars and Inns", "street_name": "Lensfield Road", "postcode": "CB2 1EN", "url": "www.thesnugbar.co.uk" }, "geometry": { "type": "Point", "coordinates": [ 0.122933755527915, 52.197929161229816 ] } },
{ "type": "Feature", "properties": { "name": "Duchess of Cambridge", "classname": "Pubs, Bars and Inns", "street_name": "High Street", "postcode": "CB2 9HZ", "url": null }, "geometry": { "type": "Point", "coordinates": [ 0.112911522565828, 52.17451388488486 ] } },
{ "type": "Feature", "properties": { "name": "Chesterton Corner", "classname": "Cafes, Snack Bars and Tea Rooms", "street_name": "High Street", "postcode": "CB4 1NW", "url": null }, "geometry": { "type": "Point", "coordinates": [ 0.142319454921614, 52.21763121781202 ] } },
{ "type": "Feature", "properties": { "name": "The Red Mug", "classname": "Cafes, Snack Bars and Tea Rooms", "street_name": "Chesterton Road", "postcode": "CB4 1EP", "url": null }, "geometry": { "type": "Point", "coordinates": [ 0.127062092409421, 52.214508255229063 ] } },
{ "type": "Feature", "properties": { "name": "The Greenroom", "classname": "Pubs, Bars and Inns", "street_name": "Cherry Hinton", "postcode": "CB1 7DZ", "url": null }, "geometry": { "type": "Point", "coordinates": [ 0.137273737036362, 52.190296792693402 ] } },
{ "type": "Feature", "properties": { "name": "Urban Butterfly", "classname": "Cafes, Snack Bars and Tea Rooms", "street_name": "Regent Terrace", "postcode": "CB2 1AA", "url": null }, "geometry": { "type": "Point", "coordinates": [ 0.127681813453755, 52.199911862071566 ] } },
{ "type": "Feature", "properties": { "name": "Sarina's", "classname": "Cafes, Snack Bars and Tea Rooms", "street_name": "Cherry Hinton Road", "postcode": "CB1 7BS", "url": null }, "geometry": { "type": "Point", "coordinates": [ 0.141611448935012, 52.188617558698084 ] } },
{ "type": "Feature", "properties": { "name": "The Tivoli", "classname": "Pubs, Bars and Inns", "street_name": "Chesterton Road", "postcode": "CB4 3AX", "url": null }, "geometry": { "type": "Point", "coordinates": [ 0.123955525517747, 52.213521107084858 ] } },
{ "type": "Feature", "properties": { "name": "Milano Gusto", "classname": "Cafes, Snack Bars and Tea Rooms", "street_name": "St Andrews Street", "postcode": "CB2 3BZ", "url": null }, "geometry": { "type": "Point", "coordinates": [ 0.122795347772626, 52.204540908536679 ] } },
{ "type": "Feature", "properties": { "name": "The Real Eating Company", "classname": "Cafes, Snack Bars and Tea Rooms", "street_name": "Sidney Street", "postcode": "CB2 3HX", "url": "www.real-eating.co.uk/" }, "geometry": { "type": "Point", "coordinates": [ 0.120269880149408, 52.206519616975754 ] } },
{ "type": "Feature", "properties": { "name": "Starbucks Coffee Co UK Ltd", "classname": "Cafes, Snack Bars and Tea Rooms", "street_name": "City Centre", "postcode": "CB1 3HP", "url": "www.starbucks.co.uk" }, "geometry": { "type": "Point", "coordinates": [ 0.15756291158604, 52.199279325090785 ] } },
{ "type": "Feature", "properties": { "name": "Cenu Cacao", "classname": "Cafes, Snack Bars and Tea Rooms", "street_name": "Kings Parade", "postcode": "CB2 1SP", "url": null }, "geometry": { "type": "Point", "coordinates": [ 0.117969738410313, 52.204933308774294 ] } },
{ "type": "Feature", "properties": { "name": "Cambeerger", "classname": "Cafes, Snack Bars and Tea Rooms", "street_name": "Mill Road", "postcode": "CB1 3NF", "url": null }, "geometry": { "type": "Point", "coordinates": [ 0.14537775163682, 52.197253581845189 ] } },
{ "type": "Feature", "properties": { "name": "Gastronome", "classname": "Cafes, Snack Bars and Tea Rooms", "street_name": "Bridge Street", "postcode": "CB2 1UF", "url": null }, "geometry": { "type": "Point", "coordinates": [ 0.118413817262878, 52.208729047080816 ] } },
{ "type": "Feature", "properties": { "name": "Fancett's", "classname": "Cafes, Snack Bars and Tea Rooms", "street_name": "Mill Road", "postcode": "CB1 2BD", "url": null }, "geometry": { "type": "Point", "coordinates": [ 0.138539669038418, 52.199293015764923 ] } },
{ "type": "Feature", "properties": { "name": "Mina Steakhouse", "classname": "Pubs, Bars and Inns", "street_name": "Brookgate", "postcode": "CB1 2FF", "url": null }, "geometry": { "type": "Point", "coordinates": [ 0.134039729994667, 52.192665387563714 ] } },
{ "type": "Feature", "properties": { "name": "Heavenly Desserts", "classname": "Cafes, Snack Bars and Tea Rooms", "street_name": "Christs Lane", "postcode": "CB1 1NP", "url": null }, "geometry": { "type": "Point", "coordinates": [ 0.123020393398865, 52.205116861365603 ] } },
{ "type": "Feature", "properties": { "name": "La Piazza", "classname": "Cafes, Snack Bars and Tea Rooms", "street_name": "Fitzroy Street", "postcode": "CB1 1PS", "url": null }, "geometry": { "type": "Point", "coordinates": [ 0.133211262990052, 52.20679994970768 ] } }
]
}
